[{"id":100654,"name":"Alabama A \u0026 M University","address":"4900 Meridian Street","city":"Normal","state":"Alabama","zip":35762,"website":"www.aamu.edu/","classification":"Master's Colleges and Universities (larger programs)","location":{"latitude":34.783368,"longitude":-86.568502}},
{"id":100663,"name":"University of Alabama at Birmingham","address":"Administration Bldg Suite 1070","city":"Birmingham","state":"Alabama","zip":"35294-0110","website":"www.uab.edu","classification":"Research Universities (very high research activity)","location":{"latitude":33.50223,"longitude":-86.80917}},
{"id":100690,"name":"Amridge University","address":"1200 Taylor Rd","city":"Montgomery","state":"Alabama","zip":"36117-3553","website":"www.amridgeuniversity.edu","classification":"Baccalaureate Colleges--Arts \u0026 Sciences","location":{"latitude":32.362609,"longitude":-86.17401}},
{"id":100706,"name":"University of Alabama in Huntsville","address":"301 Sparkman Dr","city":"Huntsville","state":"Alabama","zip":35899,"website":"www.uah.edu","classification":"Research Universities (very high research activity)","location":{"latitude":34.722818,"longitude":-86.63842}},
{"id":100724,"name":"Alabama State University","address":"915 S Jackson Street","city":"Montgomery","state":"Alabama","zip":"36104-0271","website":"www.alasu.edu","classification":"Master's Colleges and Universities (larger programs)","location":{"latitude":32.364317,"longitude":-86.295677}},
{"id":100751,"name":"The University of Alabama","address":"739 University Blvd","city":"Tuscaloosa","state":"Alabama","zip":"35487-0166","website":"www.ua.edu/","classification":"Research Universities (high research activity)","location":{"latitude":33.2144,"longitude":-87.545766}},
{"id":100830,"name":"Auburn University at Montgomery","address":"7440 East Drive","city":"Montgomery","state":"Alabama","zip":"36117-3596","website":"www.aum.edu","classification":"Master's Colleges and Universities (larger programs)","location":{"latitude":32.369939,"longitude":-86.177351}},
{"id":100858,"name":"Auburn University","address":"Auburn, Alabama","city":"Auburn University","state":"Alabama","zip":36849,"website":"www.auburn.edu","classification":"Research Universities (high research activity)","location":{"latitude":32.600201,"longitude":-85.492409}},
{"id":101189,"name":"Faulkner University","address":"5345 Atlanta Hwy","city":"Montgomery","state":"Alabama","zip":"36109-3390","website":"www.faulkner.edu","classification":"Baccalaureate Colleges--Diverse Fields","location":{"latitude":32.384181,"longitude":-86.21641}},
{"id":101480,"name":"Jacksonville State University","address":"700 Pelham Road North","city":"Jacksonville","state":"Alabama","zip":36265,"website":"www.jsu.edu/","classification":"Master's Colleges and Universities (larger programs)","location":{"latitude":33.822128,"longitude":-85.766644}},
{"id":102049,"name":"Samford University","address":"800 Lakeshore Drive","city":"Birmingham","state":"Alabama","zip":"35229-2240","website":"www.samford.edu","classification":"Master's Colleges and Universities (medium programs)","location":{"latitude":33.464578,"longitude":-86.790932}},
{"id":102094,"name":"University of South Alabama","address":"307 N University Blvd","city":"Mobile","state":"Alabama","zip":"36688-0002","website":"www.southalabama.edu","classification":"Research Universities (high research activity)","location":{"latitude":30.695081,"longitude":-88.18189}},
{"id":102377,"name":"Tuskegee University","address":"Kresge Center, 3rd Floor","city":"Tuskegee","state":"Alabama","zip":"36088-1920","website":"www.tuskegee.edu","classification":"Baccalaureate Colleges--Diverse Fields","location":{"latitude":32.431021,"longitude":-85.710315}},
{"id":102553,"name":"University of Alaska Anchorage","address":"3211 Providence Drive","city":"Anchorage","state":"Alaska","zip":99508,"website":"www.uaa.alaska.edu","classification":"Master's Colleges and Universities (larger programs)","location":{"latitude":61.189554,"longitude":-149.826135}},
{"id":102614,"name":"University of Alaska Fairbanks","address":"505 South Chandalar Drive","city":"Fairbanks","state":"Alaska","zip":"99775-7500","website":"www.uaf.edu","classification":"Research Universities (high research activity)","location":{"latitude":64.857053,"longitude":-147.824751}},
{"id":104151,"name":"Arizona State University-Tempe","address":"University Drive and Mill Avenue","city":"Tempe","state":"Arizona","zip":85287,"website":"www.asu.edu/","classification":"Research Universities (very high research activity)","location":{"latitude":33.421922,"longitude":-111.940011}},
{"id":104179,"name":"University of Arizona","address":"1401 E University","city":"Tucson","state":"Arizona","zip":"85721-0066","website":"www.arizona.edu","classification":"Research Universities (very high research activity)","location":{"latitude":32.232071,"longitude":-110.950769}},
{"id":104717,"name":"Grand Canyon University","address":"3300 W Camelback Rd","city":"Phoenix","state":"Arizona","zip":85017,"website":"www.gcu.edu","classification":"Master's Colleges and Universities (larger programs)","location":{"latitude":33.512172,"longitude":-112.129917}},
{"id":105330,"name":"Northern Arizona University","address":"1900 S. Knoles Dr, Babbitt Administrative Center","city":"Flagstaff","state":"Arizona","zip":"86011-4132","website":"nau.edu/","classification":"Research Universities (high research activity)","location":{"latitude":35.180095,"longitude":-111.657653}},
{"id":105589,"name":"Prescott College","address":"220 Grove Ave","city":"Prescott","state":"Arizona","zip":86301,"website":"www.prescott.edu","classification":"Master's Colleges and Universities (smaller programs)","location":{"latitude":34.5445,"longitude":-112.476509}},
{"id":106245,"name":"University of Arkansas at Little Rock","address":"2801 S University Ave","city":"Little Rock","state":"Arkansas","zip":72204,"website":"ualr.edu/www/","classification":"Doctoral/Research Universities","location":{"latitude":34.726644,"longitude":-92.341835}},
{"id":106263,"name":"University of Arkansas for Medical Sciences","address":"4301 W Markham","city":"Little Rock","state":"Arkansas","zip":"72205-7199","website":"www.uams.edu","classification":"Medical schools and medical centers","location":{"latitude":34.749718,"longitude":-92.320945}},
{"id":106397,"name":"University of Arkansas","address":"Administration Bldg 425","city":"Fayetteville","state":"Arkansas","zip":72701,"website":"www.uark.edu","classification":"Research Universities (very high research activity)","location":{"latitude":36.06153,"longitude":-94.178214}},
{"id":106412,"name":"University of Arkansas at Pine Bluff","address":"1200 N University Mail Slot 4789","city":"Pine Bluff","state":"Arkansas","zip":71601,"website":"www.uapb.edu","classification":"Baccalaureate Colleges--Diverse Fields","location":{"latitude":34.242192,"longitude":-92.021263}},
{"id":106458,"name":"Arkansas State University-Main Campus","address":"2105 E. Aggie Road","city":"Jonesboro","state":"Arkansas","zip":72401,"website":"www2.astate.edu","classification":"Master's Colleges and Universities (larger programs)","location":{"latitude":35.842779,"longitude":-90.680478}},
{"id":106704,"name":"University of Central Arkansas","address":"201 Donaghey Ave","city":"Conway","state":"Arkansas","zip":"72035-0001","website":"www.uca.edu","classification":"Master's Colleges and Universities (larger programs)","location":{"latitude":35.078196,"longitude":-92.45931}},
{"id":107044,"name":"Harding University","address":"915 E. Market Ave.","city":"Searcy","state":"Arkansas","zip":72143,"website":"www.harding.edu","classification":"Master's Colleges and Universities (larger programs)","location":{"latitude":35.249605,"longitude":-91.729008}},
{"id":109785,"name":"Azusa Pacific University","address":"901 E Alosta","city":"Azusa","state":"California","zip":"91702-7000","website":"www.apu.edu","classification":"Doctoral/Research Universities","location":{"latitude":34.130865,"longitude":-117.88795}},
{"id":110097,"name":"Biola University","address":"13800 Biola Ave","city":"La Mirada","state":"California","zip":"90639-0001","website":"www.biola.edu","classification":"Doctoral/Research Universities","location":{"latitude":33.904823,"longitude":-118.017342}},
{"id":110316,"name":"California Institute of Integral Studies","address":"1453 Mission Street","city":"San Francisco","state":"California","zip":94103,"website":"www.ciis.edu","classification":"Doctoral/Research Universities","location":{"latitude":37.774768,"longitude":-122.416537}},
{"id":110404,"name":"California Institute of Technology","address":"1200 E California Blvd","city":"Pasadena","state":"California","zip":91125,"website":"www.caltech.edu","classification":"Research Universities (very high research activity)","location":{"latitude":34.139275,"longitude":-118.12574}},
{"id":110468,"name":"Alliant International University-San Diego","address":"10455 Pomerado Road","city":"San Diego","state":"California","zip":92131,"website":"www.alliant.edu","classification":"Doctoral/Research Universities","location":{"latitude":32.897056,"longitude":-117.094398}},
{"id":110510,"name":"California State University-San Bernardino","address":"5500 University Pky","city":"San Bernardino","state":"California","zip":"92407-2397","website":"www.csusb.edu","classification":"Master's Colleges and Universities (larger programs)","location":{"latitude":34.182987,"longitude":-117.322508}},
{"id":110529,"name":"California State Polytechnic University-Pomona","address":"3801 West Temple Avenue","city":"Pomona","state":"California","zip":91768,"website":"www.csupomona.edu","classification":"Master's Colleges and Universities (larger programs)","location":{"latitude":34.054273,"longitude":-117.819019}},
{"id":110556,"name":"California State University-Fresno","address":"5241 N Maple Ave","city":"Fresno","state":"California","zip":93740,"website":"www.csufresno.edu","classification":"Master's Colleges and Universities (larger programs)","location":{"latitude":36.814477,"longitude":-119.748258}},
{"id":110592,"name":"California State University-Los Angeles","address":"5151 State University Dr","city":"Los Angeles","state":"California","zip":90032,"website":"www.calstatela.edu","classification":"Master's Colleges and Universities (larger programs)","location":{"latitude":34.066927,"longitude":-118.168965}},
{"id":110608,"name":"California State University-Northridge","address":"18111 Nordhoff St","city":"Northridge","state":"California","zip":91330,"website":"www.csun.edu","classification":"Master's Colleges and Universities (larger programs)","location":{"latitude":34.23671,"longitude":-118.526817}},
{"id":110635,"name":"University of California-Berkeley","address":"200 California Hall","city":"Berkeley","state":"California","zip":94720,"website":"www.berkeley.edu","classification":"Research Universities (very high research activity)","location":{"latitude":37.871519,"longitude":-122.260401}},
{"id":110644,"name":"University of California-Davis","address":"One Shields Avenue","city":"Davis","state":"California","zip":"95616-8678","website":"www.ucdavis.edu","classification":"Research Universities (very high research activity)","location":{"latitude":38.539895,"longitude":-121.751958}},
{"id":110653,"name":"University of California-Irvine","address":"501 Aldrich Hall","city":"Irvine","state":"California","zip":92697,"website":"www.uci.edu/","classification":"Research Universities (very high research activity)","location":{"latitude":33.648434,"longitude":-117.841248}},
{"id":110662,"name":"University of California-Los Angeles","address":"405 Hilgard Ave","city":"Los Angeles","state":"California","zip":"90095-1405","website":"www.ucla.edu/","classification":"Research Universities (very high research activity)","location":{"latitude":34.068892,"longitude":-118.443901}},
{"id":110671,"name":"University of California-Riverside","address":"900 University Ave","city":"Riverside","state":"California","zip":92521,"website":"WWW.UCR.EDU","classification":"Research Universities (very high research activity)","location":{"latitude":33.97588,"longitude":-117.331098}},
{"id":110680,"name":"University of California-San Diego","address":"9500 Gilman Dr","city":"La Jolla","state":"California","zip":92093,"website":"www.ucsd.edu","classification":"Research Universities (very high research activity)","location":{"latitude":32.876598,"longitude":-117.237793}},
{"id":110705,"name":"University of California-Santa Barbara","address":"5221 Cheadle Hall","city":"Santa Barbara","state":"California","zip":93106,"website":"www.ucsb.edu","classification":"Research Universities (very high research activity)","location":{"latitude":34.415402,"longitude":-119.848031}},
{"id":110714,"name":"University of California-Santa Cruz","address":"1156 High St","city":"Santa Cruz","state":"California","zip":"95064-1011","website":"www.ucsc.edu/","classification":"Research Universities (very high research activity)","location":{"latitude":36.997258,"longitude":-122.067993}},
{"id":110778,"name":"Sofia University","address":"1069 East Meadow Cr","city":"Palo Alto","state":"California","zip":94303,"website":"www.sofia.edu","classification":"Other health professions schools","location":{"latitude":37.430325,"longitude":-122.10866}},
{"id":111948,"name":"Chapman University","address":"One University Dr.","city":"Orange","state":"California","zip":92866,"website":"www.chapman.edu","classification":"Master's Colleges and Universities (larger programs)","location":{"latitude":33.793678,"longitude":-117.851481}},
{"id":112075,"name":"Concordia University-Irvine","address":"1530 Concordia West","city":"Irvine","state":"California","zip":"92612-3203","website":"www.cui.edu","classification":"Master's Colleges and Universities (larger programs)","location":{"latitude":33.6535,"longitude":-117.81063}},
{"id":115083,"name":"Golden Gate University-San Francisco","address":"536 Mission Street","city":"San Francisco","state":"California","zip":"94105-2968","website":"www.ggu.edu","classification":"Master's Colleges and Universities (larger programs)","location":{"latitude":37.789208,"longitude":-122.398785}},
{"id":117140,"name":"University of La Verne","address":"1950 Third St","city":"La Verne","state":"California","zip":"91750-4401","website":"www.laverne.edu/","classification":"Doctoral/Research Universities","location":{"latitude":34.10086,"longitude":-117.772634}},
{"id":117557,"name":"Lincoln University","address":"401 15th Street","city":"Oakland","state":"California","zip":"94612-2801","website":"www.lincolnuca.edu","classification":"Master's Colleges and Universities (smaller programs)","location":{"latitude":37.804788,"longitude":-122.269745}},
{"id":117627,"name":"La Sierra University","address":"4500 Riverwalk Parkway","city":"Riverside","state":"California","zip":"92515-8247","website":"www.lasierra.edu","classification":"Master's Colleges and Universities (medium programs)","location":{"latitude":33.908834,"longitude":-117.497071}},
{"id":117636,"name":"Loma Linda University","address":"11139 Anderson Street","city":"Loma Linda","state":"California","zip":92350,"website":"www.llu.edu/index.html","classification":"Medical schools and medical centers","location":{"latitude":34.051518,"longitude":-117.261056}},
{"id":117946,"name":"Loyola Marymount University","address":"One Lmu Drive","city":"Los Angeles","state":"California","zip":"90045-2659","website":"www.lmu.edu","classification":"Master's Colleges and Universities (larger programs)","location":{"latitude":33.970633,"longitude":-118.415655}},
{"id":118888,"name":"Mills College","address":"5000 MacArthur Blvd","city":"Oakland","state":"California","zip":94613,"website":"www.mills.edu","classification":"Master's Colleges and Universities (medium programs)","location":{"latitude":37.782639,"longitude":-122.18789}},
{"id":120184,"name":"Notre Dame de Namur University","address":"1500 Ralston Ave","city":"Belmont","state":"California","zip":"94002-1908","website":"www.ndnu.edu","classification":"Master's Colleges and Universities (medium programs)","location":{"latitude":37.517501,"longitude":-122.284618}},
{"id":120698,"name":"Palo Alto University","address":"1791 Arastradero Rd","city":"Palo Alto","state":"California","zip":"94304-1337","website":"www.paloaltou.edu","classification":"Other health professions schools","location":{"latitude":37.383251,"longitude":-122.186022}},
{"id":120838,"name":"Pacific States University","address":"3450 Wilshire Blvd. Suite 500","city":"Los Angeles","state":"California","zip":90010,"website":"www.psuca.edu","classification":"Schools of business and management","location":{"latitude":34.0607,"longitude":-118.299841}},
{"id":120883,"name":"University of the Pacific","address":"3601 Pacific Ave","city":"Stockton","state":"California","zip":"95211-0197","website":"www.pacific.edu","classification":"Doctoral/Research Universities","location":{"latitude":37.980624,"longitude":-121.307296}},
{"id":121150,"name":"Pepperdine University","address":"24255 Pacific Coast Hwy","city":"Malibu","state":"California","zip":90263,"website":"www.pepperdine.edu/","classification":"Doctoral/Research Universities","location":{"latitude":34.041912,"longitude":-118.707677}},
{"id":121691,"name":"University of Redlands","address":"1200 E. Colton Ave","city":"Redlands","state":"California","zip":"92373-0999","website":"www.redlands.edu","classification":"Master's Colleges and Universities (larger programs)","location":{"latitude":34.063571,"longitude":-117.163847}},
{"id":121983,"name":"Argosy University-San Francisco Bay Area","address":"1005 Atlantic Avenue","city":"Alameda","state":"California","zip":94501,"website":"www.argosy.edu/sanfrancisco","classification":"Other health professions schools","location":{"latitude":37.781238,"longitude":-122.267523}},
{"id":122436,"name":"University of San Diego","address":"5998 Alcala Park","city":"San Diego","state":"California","zip":"92110-2492","website":"www.sandiego.edu","classification":"Doctoral/Research Universities","location":{"latitude":32.77142,"longitude":-117.188721}},
{"id":122597,"name":"San Francisco State University","address":"1600 Holloway Ave","city":"San Francisco","state":"California","zip":94132,"website":"www.sfsu.edu","classification":"Master's Colleges and Universities (larger programs)","location":{"latitude":37.721345,"longitude":-122.477905}},
{"id":122612,"name":"University of San Francisco","address":"2130 Fulton St","city":"San Francisco","state":"California","zip":"94117-1080","website":"www.usfca.edu/","classification":"Doctoral/Research Universities","location":{"latitude":37.775564,"longitude":-122.450977}},
{"id":122931,"name":"Santa Clara University","address":"500 El Camino Real","city":"Santa Clara","state":"California","zip":95053,"website":"www.scu.edu","classification":"Master's Colleges and Universities (larger programs)","location":{"latitude":37.352706,"longitude":-121.938189}},
{"id":123554,"name":"Saint Mary's College of California","address":"1928 Saint Marys Road","city":"Moraga","state":"California","zip":94575,"website":"www.stmarys-ca.edu","classification":"Master's Colleges and Universities (larger programs)","location":{"latitude":37.83997,"longitude":-122.106795}},
{"id":123961,"name":"University of Southern California","address":"University Park","city":"Los Angeles","state":"California","zip":90089,"website":"www.usc.edu/","classification":"Research Universities (very high research activity)","location":{"latitude":34.021058,"longitude":-118.283858}},
{"id":125231,"name":"Walden University","address":"100 Washington Avenue South, Suite 900","city":"Minneapolis","state":"Minnesota","zip":55401,"website":"www.waldenu.edu","classification":"Doctoral/Research Universities","location":{"latitude":44.98137,"longitude":-93.265731}},
{"id":126182,"name":"Adams State University","address":"208 Edgemont Blvd","city":"Alamosa","state":"Colorado","zip":81101,"website":"www.adams.edu","classification":"Master's Colleges and Universities (medium programs)","location":{"latitude":37.477238,"longitude":-105.880943}},
{"id":126562,"name":"University of Colorado Denver","address":"1380 Lawrence Street, Lawrence Street Center, Suite 1400","city":"Denver","state":"Colorado","zip":"80217-3364","website":"www.ucdenver.edu/","classification":"Research Universities (high research activity)","location":{"latitude":39.74603,"longitude":-104.999181}},
{"id":126580,"name":"University of Colorado Colorado Springs","address":"1420 Austin Bluffs Parkway","city":"Colorado Springs","state":"Colorado","zip":80918,"website":"www.uccs.edu","classification":"Master's Colleges and Universities (larger programs)","location":{"latitude":38.892735,"longitude":-104.800296}},
{"id":126614,"name":"University of Colorado Boulder","address":"Regent Drive at Broadway","city":"Boulder","state":"Colorado","zip":"80309-0017","website":"www.colorado.edu","classification":"Research Universities (very high research activity)","location":{"latitude":40.004415,"longitude":-105.267061}},
{"id":126775,"name":"Colorado School of Mines","address":"1500 Illinois St","city":"Golden","state":"Colorado","zip":80401,"website":"www.mines.edu","classification":"Research Universities (high research activity)","location":{"latitude":39.75079,"longitude":-105.227148}},
{"id":126818,"name":"Colorado State University-Fort Collins","address":"102 Administration Building","city":"Fort Collins","state":"Colorado","zip":"80523-0100","website":"www.colostate.edu","classification":"Research Universities (very high research activity)","location":{"latitude":40.574759,"longitude":-105.08083}},
{"id":126827,"name":"Colorado Technical University-Colorado Springs","address":"4435 N Chestnut Street","city":"Colorado Springs","state":"Colorado","zip":"80907-3812","website":"www.coloradotech.edu/Colorado-Springs","classification":"Doctoral/Research Universities","location":{"latitude":38.894265,"longitude":-104.833928}},
{"id":127060,"name":"University of Denver","address":"2199 S. University Blvd","city":"Denver","state":"Colorado","zip":80208,"website":"www.du.edu","classification":"Research Universities (high research activity)","location":{"latitude":39.695954,"longitude":-104.964625}},
{"id":127741,"name":"University of Northern Colorado","address":"Carter Hall - Rm 4000","city":"Greeley","state":"Colorado","zip":80639,"website":"www.unco.edu","classification":"Doctoral/Research Universities","location":{"latitude":40.403178,"longitude":-104.701721}},
{"id":128425,"name":"Yeshiva Toras Chaim Talmudical Seminary","address":"1555 Stuart St","city":"Denver","state":"Colorado","zip":80204,"classification":"Theological seminaries, Bible colleges, and other faith-related institutions","location":{"latitude":39.741781,"longitude":-105.043282}},
{"id":128744,"name":"University of Bridgeport","address":"126 Park Avenue","city":"Bridgeport","state":"Connecticut","zip":"06604-5620","website":"www.bridgeport.edu","classification":"Master's Colleges and Universities (larger programs)","location":{"latitude":41.165587,"longitude":-73.189352}},
{"id":128771,"name":"Central Connecticut State University","address":"1615 Stanley St","city":"New Britain","state":"Connecticut","zip":6050,"website":"www.ccsu.edu","classification":"Master's Colleges and Universities (larger programs)","location":{"latitude":41.690258,"longitude":-72.770094}},
{"id":129020,"name":"University of Connecticut","address":"352 Mansfield Road","city":"Storrs","state":"Connecticut","zip":6269,"website":"uconn.edu/","classification":"Research Universities (very high research activity)","location":{"latitude":41.808205,"longitude":-72.249519}},
{"id":129525,"name":"University of Hartford","address":"200 Bloomfield Ave","city":"West Hartford","state":"Connecticut","zip":"06117-1599","website":"www.hartford.edu","classification":"Master's Colleges and Universities (larger programs)","location":{"latitude":41.796485,"longitude":-72.714965}},
{"id":129941,"name":"University of New Haven","address":"300 Boston Post Road","city":"West Haven","state":"Connecticut","zip":6516,"website":"www.newhaven.edu","classification":"Master's Colleges and Universities (larger programs)","location":{"latitude":41.291314,"longitude":-72.961472}},
{"id":130493,"name":"Southern Connecticut State University","address":"501 Crescent Street","city":"New Haven","state":"Connecticut","zip":"06515-1355","website":"www.southernct.edu","classification":"Master's Colleges and Universities (larger programs)","location":{"latitude":41.331852,"longitude":-72.948806}},
{"id":130697,"name":"Wesleyan University","address":"237 High St","city":"Middletown","state":"Connecticut","zip":6459,"website":"www.wesleyan.edu","classification":"Baccalaureate Colleges--Arts \u0026 Sciences","location":{"latitude":41.55678,"longitude":-72.656755}},
{"id":130794,"name":"Yale University","address":"Woodbridge Hall","city":"New Haven","state":"Connecticut","zip":6520,"website":"www.yale.edu","classification":"Research Universities (very high research activity)","location":{"latitude":41.311158,"longitude":-72.926688}},
{"id":130934,"name":"Delaware State University","address":"1200 N. Dupont Highway","city":"Dover","state":"Delaware","zip":19901,"website":"www.desu.edu","classification":"Master's Colleges and Universities (medium programs)","location":{"latitude":39.187173,"longitude":-75.54053}},
{"id":130943,"name":"University of Delaware","address":"104 Hullihen Hall","city":"Newark","state":"Delaware","zip":19716,"website":"www.udel.edu/","classification":"Research Universities (very high research activity)","location":{"latitude":39.679791,"longitude":-75.7536}},
{"id":131113,"name":"Wilmington University","address":"320 Dupont Hwy","city":"New Castle","state":"Delaware","zip":19720,"website":"www.wilmu.edu","classification":"Doctoral/Research Universities","location":{"latitude":39.682299,"longitude":-75.586998}},
{"id":131159,"name":"American University","address":"4400 Massachusetts Ave NW","city":"Washington","state":"District of Columbia","zip":"20016-8001","website":"WWW.AMERICAN.EDU","classification":"Doctoral/Research Universities","location":{"latitude":38.937802,"longitude":-77.090106}},
{"id":131283,"name":"Catholic University of America","address":"620 Michigan Avenue, NE","city":"Washington","state":"District of Columbia","zip":20064,"website":"www.cua.edu","classification":"Research Universities (high research activity)","location":{"latitude":38.935796,"longitude":-76.998961}},
{"id":131450,"name":"Gallaudet University","address":"800 Florida Ave, NE","city":"Washington","state":"District of Columbia","zip":"20002-3695","website":"www.gallaudet.edu","classification":"Master's Colleges and Universities (smaller programs)","location":{"latitude":38.907371,"longitude":-76.993675}},
{"id":131469,"name":"George Washington University","address":"2121 I Street, NW","city":"Washington","state":"District of Columbia","zip":20052,"website":"www.gwu.edu","classification":"Research Universities (very high research activity)","location":{"latitude":38.89865,"longitude":-77.047871}},
{"id":131496,"name":"Georgetown University","address":"37th and O St NW","city":"Washington","state":"District of Columbia","zip":"20057-0001","website":"www.georgetown.edu","classification":"Research Universities (very high research activity)","location":{"latitude":38.908809,"longitude":-77.073463}},
{"id":131520,"name":"Howard University","address":"2400 Sixth St NW","city":"Washington","state":"District of Columbia","zip":"20059-0001","website":"www.howard.edu","classification":"Research Universities (high research activity)","location":{"latitude":38.920739,"longitude":-77.019478}},
{"id":132471,"name":"Barry University","address":"11300 NE 2nd Ave","city":"Miami","state":"Florida","zip":"33161-6695","website":"www.barry.edu","classification":"Doctoral/Research Universities","location":{"latitude":25.878865,"longitude":-80.196136}},
{"id":132657,"name":"Lynn University","address":"3601 N. Military Trail","city":"Boca Raton","state":"Florida","zip":"33431-5598","website":"www.lynn.edu","classification":"Doctoral/Research Universities","location":{"latitude":26.382777,"longitude":-80.123851}},
{"id":132842,"name":"Carlos Albizu University-Miami","address":"2173 N.W.  99th Avenue","city":"Miami","state":"Florida","zip":"33172-2209","website":"www.albizu.edu","classification":"Master's Colleges and Universities (medium programs)","location":{"latitude":25.795162,"longitude":-80.355002}},
{"id":132903,"name":"University of Central Florida","address":"4000 Central Florida Blvd","city":"Orlando","state":"Florida","zip":32816,"website":"www.ucf.edu/","classification":"Research Universities (very high research activity)","location":{"latitude":28.60106,"longitude":-81.198805}},
{"id":133553,"name":"Embry-Riddle Aeronautical University-Daytona Beach","address":"600 S Clyde Morris Blvd","city":"Daytona Beach","state":"Florida","zip":"32114-3900","website":"www.erau.edu","classification":"Master's Colleges and Universities (medium programs)","location":{"latitude":29.189244,"longitude":-81.0495}},
{"id":133650,"name":"Florida Agricultural and Mechanical University","address":"1500 S Martin Luther King Jr Blvd","city":"Tallahassee","state":"Florida","zip":32307,"website":"www.famu.edu","classification":"Doctoral/Research Universities","location":{"latitude":30.428599,"longitude":-84.285664}},
{"id":133669,"name":"Florida Atlantic University","address":"777 Glades Rd","city":"Boca Raton","state":"Florida","zip":"33431-0991","website":"www.fau.edu/","classification":"Research Universities (high research activity)","location":{"latitude":26.372536,"longitude":-80.102293}},
{"id":133881,"name":"Florida Institute of Technology","address":"150 West University Boulevard","city":"Melbourne","state":"Florida","zip":"32901-6975","website":"www.fit.edu","classification":"Doctoral/Research Universities","location":{"latitude":28.064503,"longitude":-80.624628}},
{"id":133951,"name":"Florida International University","address":"11200 S. W. 8 Street","city":"Miami","state":"Florida","zip":33199,"website":"www.fiu.edu","classification":"Research Universities (high research activity)","location":{"latitude":25.757111,"longitude":-80.377591}},
{"id":134097,"name":"Florida State University","address":"222 S. Copeland Street","city":"Tallahassee","state":"Florida","zip":"32306-1037","website":"www.fsu.edu","classification":"Research Universities (very high research activity)","location":{"latitude":30.4421,"longitude":-84.294801}},
{"id":134130,"name":"University of Florida","city":"Gainesville","state":"Florida","zip":32611,"website":"www.ufl.edu/","classification":"Research Universities (very high research activity)","location":{"latitude":29.638248,"longitude":-82.361195}},
{"id":135364,"name":"Luther Rice University \u0026 Seminary","address":"3038 Evans Mill Rd","city":"Lithonia","state":"Georgia","zip":"30038-9869","website":"www.LRU.edu","classification":"Theological seminaries, Bible colleges, and other faith-related institutions","location":{"latitude":33.697984,"longitude":-84.123648}},
{"id":135726,"name":"University of Miami","address":"University of Miami","city":"Coral Gables","state":"Florida","zip":33146,"website":"www.miami.edu/","classification":"Research Universities (very high research activity)","location":{"latitude":25.720406,"longitude":-80.27645}},
{"id":136172,"name":"University of North Florida","address":"1 UNF Drive","city":"Jacksonville","state":"Florida","zip":"32224-7699","website":"www.unf.edu","classification":"Master's Colleges and Universities (larger programs)","location":{"latitude":30.270917,"longitude":-81.507853}},
{"id":136215,"name":"Nova Southeastern University","address":"3301 College Ave","city":"Fort Lauderdale","state":"Florida","zip":"33314-7796","website":"www.nova.edu","classification":"Research Universities (high research activity)","location":{"latitude":26.079337,"longitude":-80.24248}},
{"id":136950,"name":"Rollins College","address":"1000 Holt Avenue","city":"Winter Park","state":"Florida","zip":"32789-4499","website":"www.rollins.edu","classification":"Master's Colleges and Universities (larger programs)","location":{"latitude":28.591992,"longitude":-81.348716}},
{"id":137032,"name":"Saint Leo University","address":"33701 State Road 52","city":"Saint Leo","state":"Florida","zip":"33574-6665","website":"www.saintleo.edu","classification":"Master's Colleges and Universities (larger programs)","location":{"latitude":28.336776,"longitude":-82.257287}},
{"id":137148,"name":"Argosy University-Sarasota","address":"5250 17th Street","city":"Sarasota","state":"Florida","zip":34235,"website":"www.argosy.edu/sarasota/","classification":"Doctoral/Research Universities","location":{"latitude":27.351394,"longitude":-82.465363}},
{"id":137351,"name":"University of South Florida-Main Campus","address":"4202 East Fowler Ave","city":"Tampa","state":"Florida","zip":"33620-9951","website":"www.usf.edu","classification":"Research Universities (very high research activity)","location":{"latitude":28.056647,"longitude":-82.415876}},
{"id":137476,"name":"St Thomas University","address":"16401 NW 37th Ave","city":"Miami Gardens","state":"Florida","zip":"33054-6459","website":"www.stu.edu","classification":"Master's Colleges and Universities (larger programs)","location":{"latitude":25.920915,"longitude":-80.256265}},
{"id":137564,"name":"Southeastern University","address":"1000 Longfellow Blvd","city":"Lakeland","state":"Florida","zip":"33801-6034","website":"www.seu.edu/","classification":"Baccalaureate Colleges--Diverse Fields","location":{"latitude":28.031864,"longitude":-81.918997}},
{"id":138354,"name":"The University of West Florida","address":"11000 University Parkway","city":"Pensacola","state":"Florida","zip":"32514-5750","website":"uwf.edu","classification":"Doctoral/Research Universities","location":{"latitude":30.542855,"longitude":-87.218125}},
{"id":138947,"name":"Clark Atlanta University","address":"223 James P Brawley Drive, S.W.","city":"Atlanta","state":"Georgia","zip":"30314-4391","website":"www.cau.edu","classification":"Doctoral/Research Universities","location":{"latitude":33.748772,"longitude":-84.412818}},
{"id":139153,"name":"Beulah Heights University","address":"892 Berne St SE","city":"Atlanta","state":"Georgia","zip":30316,"website":"www.beulah.edu","classification":"Theological seminaries, Bible colleges, and other faith-related institutions","location":{"latitude":33.737022,"longitude":-84.358086}},
{"id":139366,"name":"Columbus State University","address":"4225 University Ave","city":"Columbus","state":"Georgia","zip":"31907-5645","website":"www.columbusstate.edu","classification":"Master's Colleges and Universities (larger programs)","location":{"latitude":32.501556,"longitude":-84.940796}},
{"id":139579,"name":"South University-Savannah","address":"709 Mall Blvd","city":"Savannah","state":"Georgia","zip":31406,"website":"www.southuniversity.edu","classification":"Master's Colleges and Universities (larger programs)","location":{"latitude":31.999571,"longitude":-81.105435}},
{"id":139658,"name":"Emory University","address":"408 Administration Building, 201 Dowman Drive","city":"Atlanta","state":"Georgia","zip":30322,"website":"www.emory.edu","classification":"Research Universities (very high research activity)","location":{"latitude":33.798836,"longitude":-84.325782}},
{"id":139755,"name":"Georgia Institute of Technology-Main Campus","address":"225 North Ave","city":"Atlanta","state":"Georgia","zip":"30332-0530","website":"www.gatech.edu","classification":"Research Universities (very high research activity)","location":{"latitude":33.773732,"longitude":-84.396019}},
{"id":139931,"name":"Georgia Southern University","address":"Brannen Hall, Room 2015, 2670 Southern Drive","city":"Statesboro","state":"Georgia","zip":"30460-8126","website":"www.georgiasouthern.edu","classification":"Doctoral/Research Universities","location":{"latitude":32.427756,"longitude":-81.782201}},
{"id":139940,"name":"Georgia State University","address":"33 gilmer st","city":"Atlanta","state":"Georgia","zip":"30303-3083","website":"www.gsu.edu","classification":"Research Universities (very high research activity)","location":{"latitude":33.7527,"longitude":-84.38667}},
{"id":139959,"name":"University of Georgia","address":"Administration Building","city":"Athens","state":"Georgia","zip":30602,"website":"www.uga.edu","classification":"Research Universities (very high research activity)","location":{"latitude":33.956428,"longitude":-83.374049}},
{"id":140164,"name":"Kennesaw State University","address":"1000 Chastain Rd","city":"Kennesaw","state":"Georgia","zip":"30144-5591","website":"www.kennesaw.edu","classification":"Master's Colleges and Universities (larger programs)","location":{"latitude":34.03629,"longitude":-84.58083}},
{"id":140447,"name":"Mercer University","address":"1400 Coleman Avenue","city":"Macon","state":"Georgia","zip":31207,"website":"www.mercer.edu","classification":"Master's Colleges and Universities (larger programs)","location":{"latitude":32.829731,"longitude":-83.651042}},
{"id":140818,"name":"Piedmont College","address":"1021 Central Ave","city":"Demorest","state":"Georgia","zip":"30535-0010","website":"www.piedmont.edu","classification":"Master's Colleges and Universities (larger programs)","location":{"latitude":34.566634,"longitude":-83.543888}},
{"id":141264,"name":"Valdosta State University","address":"1500 N Patterson St","city":"Valdosta","state":"Georgia","zip":31698,"website":"www.valdosta.edu","classification":"Master's Colleges and Universities (larger programs)","location":{"latitude":30.849236,"longitude":-83.289925}},
{"id":141334,"name":"University of West Georgia","address":"1601 Maple St","city":"Carrollton","state":"Georgia","zip":"30118-0001","website":"www.westga.edu","classification":"Master's Colleges and Universities (larger programs)","location":{"latitude":33.574421,"longitude":-85.099007}},
{"id":141565,"name":"University of Hawaii at Hilo","address":"200 W Kawili St","city":"Hilo","state":"Hawaii","zip":"96720-4091","website":"hilo.hawaii.edu","classification":"Baccalaureate Colleges--Arts \u0026 Sciences","location":{"latitude":19.701854,"longitude":-155.081329}},
{"id":141574,"name":"University of Hawaii at Manoa","address":"2500 Campus Road, Hawaii Hall","city":"Honolulu","state":"Hawaii","zip":"96822-2217","website":"manoa.hawaii.edu","classification":"Research Universities (very high research activity)","location":{"latitude":21.292648,"longitude":-157.816607}},
{"id":142115,"name":"Boise State University","address":"1910 University Dr","city":"Boise","state":"Idaho","zip":83725,"website":"www.boisestate.edu","classification":"Master's Colleges and Universities (larger programs)","location":{"latitude":43.604403,"longitude":-116.205789}},
{"id":142276,"name":"Idaho State University","address":"921 S 8th Ave","city":"Pocatello","state":"Idaho","zip":83209,"website":"www.isu.edu/","classification":"Research Universities (high research activity)","location":{"latitude":42.864108,"longitude":-112.429084}},
{"id":142285,"name":"University of Idaho","address":"875 Perimeter Drive","city":"Moscow","state":"Idaho","zip":"83844-2282","website":"www.uidaho.edu","classification":"Research Universities (high research activity)","location":{"latitude":46.726894,"longitude":-117.024296}},
{"id":143118,"name":"Aurora University","address":"347 S Gladstone Ave","city":"Aurora","state":"Illinois","zip":"60506-4892","website":"aurora.edu","classification":"Master's Colleges and Universities (larger programs)","location":{"latitude":41.754465,"longitude":-88.349469}},
{"id":144005,"name":"Chicago State University","address":"9501 S. King Drive","city":"Chicago","state":"Illinois","zip":"60628-1598","website":"www.csu.edu","classification":"Master's Colleges and Universities (larger programs)","location":{"latitude":41.718813,"longitude":-87.610344}},
{"id":144050,"name":"University of Chicago","address":"5801 S Ellis Ave","city":"Chicago","state":"Illinois","zip":60637,"website":"WWW.UCHICAGO.EDU","classification":"Research Universities (very high research activity)","location":{"latitude":41.78917,"longitude":-87.601196}},
{"id":144351,"name":"Concordia University-Chicago","address":"7400 Augusta","city":"River Forest","state":"Illinois","zip":"60305-1499","website":"www.cuchicago.edu","classification":"Master's Colleges and Universities (larger programs)","location":{"latitude":41.898574,"longitude":-87.810009}},
{"id":144740,"name":"DePaul University","address":"1 E Jackson Blvd","city":"Chicago","state":"Illinois","zip":60604,"website":"www.depaul.edu","classification":"Doctoral/Research Universities","location":{"latitude":41.923332,"longitude":-87.654116}},
{"id":145336,"name":"Governors State University","address":"1 University Pky","city":"University Park","state":"Illinois","zip":60484,"website":"www.govst.edu","classification":"Master's Colleges and Universities (larger programs)","location":{"latitude":41.448603,"longitude":-87.717012}},
{"id":145600,"name":"University of Illinois at Chicago","address":"601 S Morgan","city":"Chicago","state":"Illinois","zip":60607,"website":"www.uic.edu/index.html/","classification":"Research Universities (very high research activity)","location":{"latitude":41.872651,"longitude":-87.651145}},
{"id":145619,"name":"Benedictine University","address":"5700 College Rd","city":"Lisle","state":"Illinois","zip":"60532-0900","website":"www.ben.edu","classification":"Doctoral/Research Universities","location":{"latitude":41.776395,"longitude":-88.095948}},
{"id":145637,"name":"University of Illinois at Urbana-Champaign","address":"601 E John Street","city":"Champaign","state":"Illinois","zip":"61820-5711","website":"www.illinois.edu/","classification":"Research Universities (very high research activity)","location":{"latitude":40.108864,"longitude":-88.230309}},
{"id":145725,"name":"Illinois Institute of Technology","address":"3300 S Federal St","city":"Chicago","state":"Illinois","zip":60616,"website":"www.iit.edu","classification":"Research Universities (high research activity)","location":{"latitude":41.833801,"longitude":-87.628346}},
{"id":145770,"name":"Argosy University-Chicago","address":"225 N. Michigan Ave, Ste 1300","city":"Chicago","state":"Illinois","zip":60601,"website":"www.argosy.edu/chicago","classification":"Doctoral/Research Universities","location":{"latitude":41.886006,"longitude":-87.623772}},
{"id":145813,"name":"Illinois State University","address":"North and School Streets","city":"Normal","state":"Illinois","zip":"61790-1000","website":"illinoisstate.edu/","classification":"Doctoral/Research Universities","location":{"latitude":40.509724,"longitude":-88.99234}},
{"id":146339,"name":"Judson University","address":"1151 N State St","city":"Elgin","state":"Illinois","zip":"60123-1498","website":"www.judsonu.edu","classification":"Baccalaureate Colleges--Diverse Fields","location":{"latitude":42.05896,"longitude":-88.289708}},
{"id":146612,"name":"Lewis University","address":"One University Parkway","city":"Romeoville","state":"Illinois","zip":"60446-2200","website":"www.lewisu.edu","classification":"Master's Colleges and Universities (larger programs)","location":{"latitude":41.605432,"longitude":-88.079032}},
{"id":146719,"name":"Loyola University Chicago","address":"1032 W. Sheridan Rd","city":"Chicago","state":"Illinois","zip":60660,"website":"www.luc.edu","classification":"Research Universities (high research activity)","location":{"latitude":41.999161,"longitude":-87.657399}},
{"id":147013,"name":"McKendree University","address":"701 College Rd","city":"Lebanon","state":"Illinois","zip":"62254-1291","website":"www.mckendree.edu/prospective/admissions/index.aspx","classification":"Master's Colleges and Universities (larger programs)","location":{"latitude":38.609431,"longitude":-89.814486}},
{"id":147536,"name":"National Louis University","address":"122 S Michigan Ave","city":"Chicago","state":"Illinois","zip":60603,"website":"www.nl.edu","classification":"Doctoral/Research Universities","location":{"latitude":41.879826,"longitude":-87.624805}},
{"id":147703,"name":"Northern Illinois University","address":"1425 W. Lincoln Hwy.","city":"Dekalb","state":"Illinois","zip":"60115-2828","website":"www.niu.edu","classification":"Research Universities (high research activity)","location":{"latitude":41.933791,"longitude":-88.766065}},
{"id":147767,"name":"Northwestern University","address":"633 Clark St","city":"Evanston","state":"Illinois","zip":60208,"website":"www.northwestern.edu","classification":"Research Universities (very high research activity)","location":{"latitude":42.058377,"longitude":-87.673653}},
{"id":147828,"name":"Olivet Nazarene University","address":"One University Avenue","city":"Bourbonnais","state":"Illinois","zip":"60914-2271","website":"www.olivet.edu","classification":"Master's Colleges and Universities (larger programs)","location":{"latitude":41.155489,"longitude":-87.873654}},
{"id":148487,"name":"Roosevelt University","address":"430 S Michigan Ave","city":"Chicago","state":"Illinois","zip":"60605-1394","website":"www.roosevelt.edu","classification":"Master's Colleges and Universities (larger programs)","location":{"latitude":41.876055,"longitude":-87.624952}},
{"id":148496,"name":"Dominican University","address":"7900 W Division Street","city":"River Forest","state":"Illinois","zip":60305,"website":"www.dom.edu/","classification":"Master's Colleges and Universities (larger programs)","location":{"latitude":41.902834,"longitude":-87.821872}},
{"id":148511,"name":"Rush University","address":"600 S. Paulina St. STE 440","city":"Chicago","state":"Illinois","zip":60612,"website":"WWW.RUSHU.RUSH.EDU","classification":"Medical schools and medical centers","location":{"latitude":41.874911,"longitude":-87.667498}},
{"id":148584,"name":"University of St Francis","address":"500 N Wilcox St","city":"Joliet","state":"Illinois","zip":"60435-6188","website":"www.stfrancis.edu","classification":"Master's Colleges and Universities (larger programs)","location":{"latitude":41.533341,"longitude":-88.096368}},
{"id":148654,"name":"University of Illinois at Springfield","address":"One University Plaza","city":"Springfield","state":"Illinois","zip":"62703-5407","website":"www.uis.edu","classification":"Master's Colleges and Universities (larger programs)","location":{"latitude":39.729862,"longitude":-89.614917}},
{"id":149222,"name":"Southern Illinois University-Carbondale","address":"Lincoln Drive","city":"Carbondale","state":"Illinois","zip":"62901-4512","website":"www.siu.edu","classification":"Research Universities (high research activity)","location":{"latitude":37.71921,"longitude":-89.217618}},
{"id":149231,"name":"Southern Illinois University-Edwardsville","address":"Il State Rte 157","city":"Edwardsville","state":"Illinois","zip":"62026-1259","website":"www.siue.edu","classification":"Master's Colleges and Universities (larger programs)","location":{"latitude":38.793949,"longitude":-89.997779}},
{"id":149514,"name":"Trinity International University-Illinois","address":"2065 Half Day Rd","city":"Deerfield","state":"Illinois","zip":"60015-1283","website":"www.tiu.edu","classification":"Doctoral/Research Universities","location":{"latitude":42.197909,"longitude":-87.882722}},
{"id":149772,"name":"Western Illinois University","address":"1 University Circle","city":"Macomb","state":"Illinois","zip":61455,"website":"www.wiu.edu","classification":"Master's Colleges and Universities (larger programs)","location":{"latitude":40.465621,"longitude":-90.685235}},
{"id":149781,"name":"Wheaton College","address":"501 College Ave","city":"Wheaton","state":"Illinois","zip":"60187-5593","website":"www.wheaton.edu","classification":"Baccalaureate Colleges--Arts \u0026 Sciences","location":{"latitude":41.870943,"longitude":-88.09681}},
{"id":150066,"name":"Anderson University","address":"1100 E 5th St","city":"Anderson","state":"Indiana","zip":"46012-3495","website":"www.anderson.edu","classification":"Master's Colleges and Universities (larger programs)","location":{"latitude":40.112167,"longitude":-85.662292}},
{"id":150136,"name":"Ball State University","address":"2000 University Ave","city":"Muncie","state":"Indiana","zip":47306,"website":"www.bsu.edu","classification":"Research Universities (high research activity)","location":{"latitude":40.198942,"longitude":-85.408863}},
{"id":151111,"name":"Indiana University-Purdue University-Indianapolis","address":"425 University Blvd","city":"Indianapolis","state":"Indiana","zip":"46202-5143","website":"www.iupui.edu","classification":"Research Universities (high research activity)","location":{"latitude":39.772948,"longitude":-86.172217}},
{"id":151290,"name":"Indiana Institute of Technology","address":"1600 E Washington Blvd","city":"Fort Wayne","state":"Indiana","zip":"46803-1228","website":"www.indianatech.edu","classification":"Schools of business and management","location":{"latitude":41.078338,"longitude":-85.11795}},
{"id":151324,"name":"Indiana State University","address":"210 N 7th St","city":"Terre Haute","state":"Indiana","zip":47809,"website":"www.indstate.edu","classification":"Doctoral/Research Universities","location":{"latitude":39.46873,"longitude":-87.407085}},
{"id":151351,"name":"Indiana University-Bloomington","address":"107 South Indiana Ave.","city":"Bloomington","state":"Indiana","zip":"47405-7000","website":"www.iub.edu","classification":"Research Universities (very high research activity)","location":{"latitude":39.166383,"longitude":-86.526904}},
{"id":151801,"name":"Indiana Wesleyan University","address":"4201 S Washington St","city":"Marion","state":"Indiana","zip":"46953-4974","website":"www.indwes.edu","classification":"Master's Colleges and Universities (larger programs)","location":{"latitude":40.518495,"longitude":-85.661991}},
{"id":152080,"name":"University of Notre Dame","address":"400 Main Building","city":"Notre Dame","state":"Indiana","zip":46556,"website":"www.nd.edu","classification":"Research Universities (very high research activity)","location":{"latitude":41.703058,"longitude":-86.238959}},
{"id":152099,"name":"Oakland City University","address":"138 N Lucretia St","city":"Oakland City","state":"Indiana","zip":"47660-1099","website":"www.oak.edu","classification":"Master's Colleges and Universities (medium programs)","location":{"latitude":38.339606,"longitude":-87.351611}},
{"id":153269,"name":"Drake University","address":"2507 University Avenue","city":"Des Moines","state":"Iowa","zip":"50311-4505","website":"www.drake.edu","classification":"Master's Colleges and Universities (larger programs)","location":{"latitude":41.60381,"longitude":-93.654062}},
{"id":153603,"name":"Iowa State University","address":"3410 Beardshear Hall","city":"Ames","state":"Iowa","zip":"50011-2030","website":"www.iastate.edu","classification":"Research Universities (very high research activity)","location":{"latitude":42.026368,"longitude":-93.648353}},
{"id":153658,"name":"University of Iowa","address":"101 Jessup Hall","city":"Iowa City","state":"Iowa","zip":"52242-1316","website":"www.uiowa.edu","classification":"Research Universities (very high research activity)","location":{"latitude":41.660695,"longitude":-91.535698}},
{"id":153861,"name":"Maharishi University of Management","address":"1000 N 4th St","city":"Fairfield","state":"Iowa","zip":52557,"website":"www.mum.edu","classification":"Master's Colleges and Universities (larger programs)","location":{"latitude":41.017781,"longitude":-91.967306}},
{"id":154235,"name":"Saint Ambrose University","address":"518 W Locust St","city":"Davenport","state":"Iowa","zip":"52803-2898","website":"www.sau.edu","classification":"Master's Colleges and Universities (larger programs)","location":{"latitude":41.540081,"longitude":-90.58098}},
{"id":154688,"name":"Baker University","address":"618 Eighth Street","city":"Baldwin City","state":"Kansas","zip":"66006-0065","website":"www.bakeru.edu","classification":"Master's Colleges and Universities (larger programs)","location":{"latitude":38.777278,"longitude":-95.188231}},
{"id":155025,"name":"Emporia State University","address":"1 Kellogg Circle","city":"Emporia","state":"Kansas","zip":"66801-5415","website":"www.emporia.edu","classification":"Master's Colleges and Universities (larger programs)","location":{"latitude":38.413786,"longitude":-96.180208}},
{"id":155317,"name":"University of Kansas","address":"Strong Hall, 1450 Jayhawk Blvd, Room 230","city":"Lawrence","state":"Kansas","zip":66045,"website":"www.ku.edu","classification":"Research Universities (very high research activity)","location":{"latitude":38.957351,"longitude":-95.24587}},
{"id":155399,"name":"Kansas State University","address":"Anderson Hall","city":"Manhattan","state":"Kansas","zip":66506,"website":"www.k-state.edu","classification":"Research Universities (high research activity)","location":{"latitude":39.188616,"longitude":-96.581077}},
{"id":156125,"name":"Wichita State University","address":"1845 N. Fairmount","city":"Wichita","state":"Kansas","zip":"67260-0124","website":"www.wichita.edu","classification":"Research Universities (high research activity)","location":{"latitude":37.716484,"longitude":-97.296733}},
{"id":156286,"name":"Bellarmine University","address":"2001 Newburg Rd","city":"Louisville","state":"Kentucky","zip":"40205-0671","website":"www.bellarmine.edu","classification":"Master's Colleges and Universities (larger programs)","location":{"latitude":38.219138,"longitude":-85.7049}},
{"id":156541,"name":"University of the Cumberlands","address":"6191 College Station Drive","city":"Williamsburg","state":"Kentucky","zip":40769,"website":"www.ucumberlands.edu","classification":"Master's Colleges and Universities (medium programs)","location":{"latitude":36.736489,"longitude":-84.162375}},
{"id":157085,"name":"University of Kentucky","address":"South Limestone","city":"Lexington","state":"Kentucky","zip":"40506-0032","website":"www.uky.edu","classification":"Research Universities (very high research activity)","location":{"latitude":38.032393,"longitude":-84.509177}},
{"id":157216,"name":"Lindsey Wilson College","address":"210 Lindsey Wilson St","city":"Columbia","state":"Kentucky","zip":"42728-1223","website":"www.lindsey.edu","classification":"Master's Colleges and Universities (medium programs)","location":{"latitude":37.101853,"longitude":-85.299909}},
{"id":157289,"name":"University of Louisville","address":"2301 S 3rd St","city":"Louisville","state":"Kentucky","zip":"40292-0001","website":"www.louisville.edu","classification":"Research Universities (very high research activity)","location":{"latitude":38.215752,"longitude":-85.758843}},
{"id":157401,"name":"Murray State University","address":"218 Wells Hall","city":"Murray","state":"Kentucky","zip":"42071-3318","website":"www.murraystate.edu","classification":"Master's Colleges and Universities (larger programs)","location":{"latitude":36.61241,"longitude":-88.323493}},
{"id":157447,"name":"Northern Kentucky University","address":"Nunn Drive","city":"Highland Heights","state":"Kentucky","zip":41099,"website":"www.nku.edu","classification":"Master's Colleges and Universities (larger programs)","location":{"latitude":39.029221,"longitude":-84.465959}},
{"id":157748,"name":"The Southern Baptist Theological Seminary","address":"2825 Lexington Rd","city":"Louisville","state":"Kentucky","zip":"40280-0001","website":"www.sbts.edu","classification":"Theological seminaries, Bible colleges, and other faith-related institutions","location":{"latitude":38.248216,"longitude":-85.687649}},
{"id":157757,"name":"Spalding University","address":"901 S Fourth Street","city":"Louisville","state":"Kentucky","zip":"40203-2188","website":"www.spalding.edu","classification":"Doctoral/Research Universities","location":{"latitude":38.241815,"longitude":-85.75905}},
{"id":157793,"name":"Sullivan University","address":"3101 Bardstown Rd","city":"Louisville","state":"Kentucky","zip":"40205-3013","website":"www.sullivan.edu","classification":"Master's Colleges and Universities (medium programs)","location":{"latitude":38.212824,"longitude":-85.670489}},
{"id":159009,"name":"Grambling State University","address":"403 Main Street","city":"Grambling","state":"Louisiana","zip":71245,"website":"www.gram.edu","classification":"Master's Colleges and Universities (medium programs)","location":{"latitude":32.522702,"longitude":-92.717367}},
{"id":159373,"name":"Louisiana State University Health Sciences Center-New Orleans","address":"433 Bolivar St","city":"New Orleans","state":"Louisiana","zip":"70112-2223","website":"www.lsuhsc.edu","classification":"Medical schools and medical centers","location":{"latitude":29.957272,"longitude":-90.083145}},
{"id":159391,"name":"Louisiana State University and Agricultural \u0026 Mechanical College","address":"156 Thomas Boyd Hall","city":"Baton Rouge","state":"Louisiana","zip":"70803-2750","website":"www.lsu.edu","classification":"Research Universities (very high research activity)","location":{"latitude":30.552111,"longitude":-91.196656}},
{"id":159647,"name":"Louisiana Tech University","address":"305 Wisteria","city":"Ruston","state":"Louisiana","zip":71272,"website":"www.latech.edu","classification":"Research Universities (high research activity)","location":{"latitude":32.525518,"longitude":-92.64964}},
{"id":159939,"name":"University of New Orleans","address":"2000 Lakeshore Drive","city":"New Orleans","state":"Louisiana","zip":70148,"website":"www.uno.edu","classification":"Research Universities (high research activity)","location":{"latitude":30.028539,"longitude":-90.068506}},
{"id":159948,"name":"New Orleans Baptist Theological Seminary","address":"3939 Gentilly Blvd","city":"New Orleans","state":"Louisiana","zip":70126,"website":"www.nobts.edu","classification":"Theological seminaries, Bible colleges, and other faith-related institutions","location":{"latitude":30.005105,"longitude":-90.043929}},
{"id":159993,"name":"University of Louisiana at Monroe","address":"700 University Avenue","city":"Monroe","state":"Louisiana","zip":"71209-0000","website":"www.ulm.edu","classification":"Master's Colleges and Universities (larger programs)","location":{"latitude":32.527957,"longitude":-92.073855}},
{"id":160065,"name":"Our Lady of Holy Cross College","address":"4123 Woodland Drive","city":"New Orleans","state":"Louisiana","zip":"70131-7399","website":"www.olhcc.edu","classification":"Master's Colleges and Universities (smaller programs)","location":{"latitude":29.912539,"longitude":-89.997055}},
{"id":160612,"name":"Southeastern Louisiana University","address":"548 Ned McGehee Ave.","city":"Hammond","state":"Louisiana","zip":70402,"website":"www.southeastern.edu","classification":"Master's Colleges and Universities (larger programs)","location":{"latitude":30.51358,"longitude":-90.468558}},
{"id":160621,"name":"Southern University and A \u0026 M College","address":"3rd Floor, J.S. Clark Adm. Building, P.O. Box 9374","city":"Baton Rouge","state":"Louisiana","zip":70813,"website":"www.subr.edu","classification":"Master's Colleges and Universities (larger programs)","location":{"latitude":30.527133,"longitude":-91.196588}},
{"id":160658,"name":"University of Louisiana at Lafayette","address":"104 University Circle","city":"Lafayette","state":"Louisiana","zip":70503,"website":"www.louisiana.edu","classification":"Research Universities (high research activity)","location":{"latitude":30.215283,"longitude":-92.01941}},
{"id":160755,"name":"Tulane University of Louisiana","address":"6823 St. Charles Avenue","city":"New Orleans","state":"Louisiana","zip":"70118-5698","website":"tulane.edu","classification":"Research Universities (very high research activity)","location":{"latitude":29.939696,"longitude":-90.120409}},
{"id":161253,"name":"University of Maine","address":"168 College Avenue","city":"Orono","state":"Maine","zip":4469,"website":"www.umaine.edu/","classification":"Research Universities (high research activity)","location":{"latitude":44.895966,"longitude":-68.673839}},
{"id":161457,"name":"University of New England","address":"11 Hills Beach Rd","city":"Biddeford","state":"Maine","zip":"04005-9599","website":"www.une.edu/","classification":"Master's Colleges and Universities (larger programs)","location":{"latitude":43.458172,"longitude":-70.385882}},
{"id":161554,"name":"University of Southern Maine","address":"96 Falmouth St","city":"Portland","state":"Maine","zip":4103,"website":"www.usm.maine.edu","classification":"Master's Colleges and Universities (larger programs)","location":{"latitude":43.662637,"longitude":-70.276002}},
{"id":161873,"name":"University of Baltimore","address":"Charles at Mount Royal","city":"Baltimore","state":"Maryland","zip":"21201-5720","website":"www.ubalt.edu","classification":"Master's Colleges and Universities (larger programs)","location":{"latitude":39.305834,"longitude":-76.616591}},
{"id":162007,"name":"Bowie State University","address":"14000 Jericho Park Rd","city":"Bowie","state":"Maryland","zip":"20715-9465","website":"www.bowiestate.edu","classification":"Doctoral/Research Universities","location":{"latitude":39.018185,"longitude":-76.759721}},
{"id":162061,"name":"Capitol Technology University","address":"11301 Springfield Rd","city":"Laurel","state":"Maryland","zip":20708,"website":"www.capitol-college.edu","classification":"Schools of engineering","location":{"latitude":39.047047,"longitude":-76.851413}},
{"id":162584,"name":"Frostburg State University","address":"101 Braddock Road","city":"Frostburg","state":"Maryland","zip":"21532-1099","website":"www.frostburg.edu","classification":"Master's Colleges and Universities (larger programs)","location":{"latitude":39.651509,"longitude":-78.933871}},
{"id":162928,"name":"Johns Hopkins University","address":"3400 N Charles St, Mason Hall","city":"Baltimore","state":"Maryland","zip":"21218-2688","website":"www.jhu.edu","classification":"Research Universities (very high research activity)","location":{"latitude":39.32838,"longitude":-76.620799}},
{"id":163046,"name":"Loyola University Maryland","address":"4501 N Charles St","city":"Baltimore","state":"Maryland","zip":"21210-2699","website":"www.loyola.edu","classification":"Master's Colleges and Universities (larger programs)","location":{"latitude":39.346044,"longitude":-76.623417}},
{"id":163259,"name":"University of Maryland-Baltimore","address":"620 West Lexington St","city":"Baltimore","state":"Maryland","zip":"21201-1627","website":"www.umaryland.edu","classification":"Medical schools and medical centers","location":{"latitude":39.29173,"longitude":-76.624981}},
{"id":163268,"name":"University of Maryland-Baltimore County","address":"1000 Hilltop Circle","city":"Baltimore","state":"Maryland","zip":21250,"website":"www.umbc.edu","classification":"Research Universities (high research activity)","location":{"latitude":39.256686,"longitude":-76.711607}},
{"id":163286,"name":"University of Maryland-College Park","city":"College Park","state":"Maryland","zip":20742,"website":"www.umd.edu","classification":"Research Universities (very high research activity)","location":{"latitude":38.988607,"longitude":-76.939704}},
{"id":163338,"name":"University of Maryland Eastern Shore","address":"J.T. Williams Hall","city":"Princess Anne","state":"Maryland","zip":"21853-1299","website":"www.umes.edu","classification":"Master's Colleges and Universities (smaller programs)","location":{"latitude":38.211188,"longitude":-75.687227}},
{"id":163453,"name":"Morgan State University","address":"1700 East Cold Spring Lane","city":"Baltimore","state":"Maryland","zip":"21251-0001","website":"www.morgan.edu","classification":"Doctoral/Research Universities","location":{"latitude":39.344235,"longitude":-76.584238}},
{"id":163532,"name":"Ner Israel Rabbinical College","address":"400 Mount Wilson Ln","city":"Baltimore","state":"Maryland","zip":21208,"classification":"Theological seminaries, Bible colleges, and other faith-related institutions","location":{"latitude":39.387771,"longitude":-76.751799}},
{"id":163578,"name":"Notre Dame of Maryland University","address":"4701 N Charles St","city":"Baltimore","state":"Maryland","zip":"21210-2476","website":"www.ndm.edu","classification":"Master's Colleges and Universities (larger programs)","location":{"latitude":39.351307,"longitude":-76.619701}},
{"id":163851,"name":"Salisbury University","address":"1101 Camden Ave","city":"Salisbury","state":"Maryland","zip":"21801-6862","website":"www.salisbury.edu","classification":"Master's Colleges and Universities (larger programs)","location":{"latitude":38.345447,"longitude":-75.605705}},
{"id":164076,"name":"Towson University","address":"8000 York Rd","city":"Towson","state":"Maryland","zip":"21252-0001","website":"www.towson.edu","classification":"Master's Colleges and Universities (larger programs)","location":{"latitude":39.393008,"longitude":-76.612268}},
{"id":164447,"name":"American International College","address":"1000 State Street","city":"Springfield","state":"Massachusetts","zip":1109,"website":"www.aic.edu","classification":"Master's Colleges and Universities (larger programs)","location":{"latitude":42.112708,"longitude":-72.558507}},
{"id":164739,"name":"Bentley University","address":"175 Forest St","city":"Waltham","state":"Massachusetts","zip":"02452-4705","website":"www.bentley.edu","classification":"Master's Colleges and Universities (larger programs)","location":{"latitude":42.388798,"longitude":-71.220148}},
{"id":164924,"name":"Boston College","address":"140 Commonwealth Avenue","city":"Chestnut Hill","state":"Massachusetts","zip":2467,"website":"www.bc.edu","classification":"Research Universities (high research activity)","location":{"latitude":42.337688,"longitude":-71.171488}},
{"id":164988,"name":"Boston University","address":"One Silber Way","city":"Boston","state":"Massachusetts","zip":2215,"website":"www.bu.edu","classification":"Research Universities (very high research activity)","location":{"latitude":42.349581,"longitude":-71.09984}},
{"id":165015,"name":"Brandeis University","address":"415 South St","city":"Waltham","state":"Massachusetts","zip":"02454-9110","website":"www.brandeis.edu/","classification":"Research Universities (very high research activity)","location":{"latitude":42.364947,"longitude":-71.254716}},
{"id":165167,"name":"Cambridge College","address":"1000 Massachusetts Avenue","city":"Cambridge","state":"Massachusetts","zip":2138,"website":"www.cambridgecollege.edu","classification":"Master's Colleges and Universities (larger programs)","location":{"latitude":42.369193,"longitude":-71.11084}},
{"id":165334,"name":"Clark University","address":"950 Main St","city":"Worcester","state":"Massachusetts","zip":"01610-1477","website":"www.clarku.edu","classification":"Research Universities (high research activity)","location":{"latitude":42.251064,"longitude":-71.823537}},
{"id":165699,"name":"Endicott College","address":"376 Hale Street","city":"Beverly","state":"Massachusetts","zip":1915,"website":"www.endicott.edu","classification":"Master's Colleges and Universities (medium programs)","location":{"latitude":42.554177,"longitude":-70.840729}},
{"id":166027,"name":"Harvard University","address":"Massachusetts Hall","city":"Cambridge","state":"Massachusetts","zip":2138,"website":"www.harvard.edu","classification":"Research Universities (very high research activity)","location":{"latitude":42.374429,"longitude":-71.118177}},
{"id":166452,"name":"Lesley University","address":"29 Everett St","city":"Cambridge","state":"Massachusetts","zip":"02138-2790","website":"www.lesley.edu","classification":"Master's Colleges and Universities (larger programs)","location":{"latitude":42.378429,"longitude":-71.115601}},
{"id":166513,"name":"University of Massachusetts-Lowell","address":"1 University Ave","city":"Lowell","state":"Massachusetts","zip":"01854-5104","website":"www.uml.edu","classification":"Research Universities (high research activity)","location":{"latitude":42.65372,"longitude":-71.325081}},
{"id":166629,"name":"University of Massachusetts-Amherst","address":"374 Whitmore Building 181 Presidents Drive","city":"Amherst","state":"Massachusetts","zip":1003,"website":"www.umass.edu","classification":"Research Universities (very high research activity)","location":{"latitude":42.386105,"longitude":-72.52613}},
{"id":166638,"name":"University of Massachusetts-Boston","address":"100 Morrissey Boulevard","city":"Boston","state":"Massachusetts","zip":"02125-3393","website":"www.umb.edu","classification":"Research Universities (high research activity)","location":{"latitude":42.314541,"longitude":-71.038653}},
{"id":166656,"name":"MCPHS University","address":"179 Longwood Ave","city":"Boston","state":"Massachusetts","zip":"02115-5896","website":"www.mcphs.edu","classification":"Other health professions schools","location":{"latitude":42.337036,"longitude":-71.100964}},
{"id":166683,"name":"Massachusetts Institute of Technology","address":"77 Massachusetts Avenue","city":"Cambridge","state":"Massachusetts","zip":"02139-4307","website":"web.mit.edu/student/","classification":"Research Universities (very high research activity)","location":{"latitude":42.360095,"longitude":-71.092115}},
{"id":167057,"name":"The New England Conservatory of Music","address":"290 Huntington Ave","city":"Boston","state":"Massachusetts","zip":"02115-5018","website":"necmusic.edu","classification":"Schools of art, music, and design","location":{"latitude":42.340998,"longitude":-71.086321}},
{"id":167358,"name":"Northeastern University","address":"360 Huntington Ave","city":"Boston","state":"Massachusetts","zip":"02115-5005","website":"www.northeastern.edu","classification":"Research Universities (high research activity)","location":{"latitude":42.339992,"longitude":-71.088782}},
{"id":167783,"name":"Simmons College","address":"300 The Fenway","city":"Boston","state":"Massachusetts","zip":"02115-5898","website":"www.simmons.edu","classification":"Master's Colleges and Universities (larger programs)","location":{"latitude":42.3393,"longitude":-71.099967}},
{"id":167835,"name":"Smith College","address":"Elm St","city":"Northampton","state":"Massachusetts","zip":1063,"website":"www.smith.edu","classification":"Baccalaureate Colleges--Arts \u0026 Sciences","location":{"latitude":42.317933,"longitude":-72.638094}},
{"id":167899,"name":"Springfield College","address":"263 Alden St","city":"Springfield","state":"Massachusetts","zip":"01109-3797","website":"www.spfldcol.edu","classification":"Master's Colleges and Universities (larger programs)","location":{"latitude":42.105033,"longitude":-72.555688}},
{"id":167987,"name":"University of Massachusetts-Dartmouth","address":"285 Old Westport Rd","city":"North Dartmouth","state":"Massachusetts","zip":"02747-2300","website":"www.umassd.edu","classification":"Master's Colleges and Universities (larger programs)","location":{"latitude":41.628861,"longitude":-71.005528}},
{"id":168005,"name":"Suffolk University","address":"8 Ashburton Place","city":"Boston","state":"Massachusetts","zip":"02108-2770","website":"www.suffolk.edu","classification":"Master's Colleges and Universities (larger programs)","location":{"latitude":42.359088,"longitude":-71.061969}},
{"id":168148,"name":"Tufts University","city":"Medford","state":"Massachusetts","zip":"02155-5555","website":"www.tufts.edu","classification":"Research Universities (very high research activity)","location":{"latitude":42.406004,"longitude":-71.120641}},
{"id":168254,"name":"Western New England University","address":"1215 Wilbraham Rd","city":"Springfield","state":"Massachusetts","zip":"01119-2684","website":"www.wne.edu","classification":"Master's Colleges and Universities (medium programs)","location":{"latitude":42.115837,"longitude":-72.518789}},
{"id":168421,"name":"Worcester Polytechnic Institute","address":"100 Institute Road","city":"Worcester","state":"Massachusetts","zip":"01609-2280","website":"www.wpi.edu","classification":"Doctoral/Research Universities","location":{"latitude":42.275067,"longitude":-71.808792}},
{"id":168740,"name":"Andrews University","address":"4150 Administration Drive, Room 136","city":"Berrien Springs","state":"Michigan","zip":49104,"website":"www.andrews.edu","classification":"Doctoral/Research Universities","location":{"latitude":41.963266,"longitude":-86.355149}},
{"id":169248,"name":"Central Michigan University","address":"106 Warriner Hall","city":"Mount Pleasant","state":"Michigan","zip":48859,"website":"www.cmich.edu","classification":"Doctoral/Research Universities","location":{"latitude":43.591137,"longitude":-84.775275}},
{"id":169716,"name":"University of Detroit Mercy","address":"4001 W McNichols Rd","city":"Detroit","state":"Michigan","zip":"48221-3038","website":"www.udmercy.edu","classification":"Master's Colleges and Universities (larger programs)","location":{"latitude":42.417168,"longitude":-83.138369}},
{"id":169798,"name":"Eastern Michigan University","address":"202 Welch Hall","city":"Ypsilanti","state":"Michigan","zip":48197,"website":"www.emich.edu","classification":"Master's Colleges and Universities (larger programs)","location":{"latitude":42.245751,"longitude":-83.624499}},
{"id":169910,"name":"Ferris State University","address":"1201 S State St","city":"Big Rapids","state":"Michigan","zip":"49307-2251","website":"www.ferris.edu/","classification":"Master's Colleges and Universities (larger programs)","location":{"latitude":43.687464,"longitude":-85.483509}},
{"id":170286,"name":"Hillsdale College","address":"33 E College St","city":"Hillsdale","state":"Michigan","zip":49242,"website":"www.hillsdale.edu","classification":"Not applicable, not in Carnegie universe (not accredited or nondegree-granting)","location":{"latitude":41.931418,"longitude":-84.632691}},
{"id":170675,"name":"Lawrence Technological University","address":"21000 West Ten Mile Road","city":"Southfield","state":"Michigan","zip":"48075-1058","website":"www.ltu.edu","classification":"Master's Colleges and Universities (larger programs)","location":{"latitude":42.474072,"longitude":-83.25003}},
{"id":170976,"name":"University of Michigan-Ann Arbor","address":"503 Thompson Street","city":"Ann Arbor","state":"Michigan","zip":48109,"website":"www.umich.edu","classification":"Research Universities (very high research activity)","location":{"latitude":42.276172,"longitude":-83.74313}},
{"id":171100,"name":"Michigan State University","city":"East Lansing","state":"Michigan","zip":"48824-1046","website":"www.msu.edu","classification":"Research Universities (very high research activity)","location":{"latitude":42.72476,"longitude":-84.473639}},
{"id":171128,"name":"Michigan Technological University","address":"1400 Townsend Drive","city":"Houghton","state":"Michigan","zip":"49931-1295","website":"www.mtu.edu","classification":"Research Universities (high research activity)","location":{"latitude":47.1183,"longitude":-88.546403}},
{"id":171137,"name":"University of Michigan-Dearborn","address":"4901 Evergreen Rd","city":"Dearborn","state":"Michigan","zip":"48128-1491","website":"www.umd.umich.edu/","classification":"Master's Colleges and Universities (larger programs)","location":{"latitude":42.317287,"longitude":-83.231417}},
{"id":171571,"name":"Oakland University","address":"2200 North Squirrel Road","city":"Rochester Hills","state":"Michigan","zip":"48309-4401","website":"www.oakland.edu","classification":"Doctoral/Research Universities","location":{"latitude":42.672586,"longitude":-83.218866}},
{"id":172608,"name":"Walsh College of Accountancy and Business Administration","address":"3838 Livernois","city":"Troy","state":"Michigan","zip":"48083-5066","website":"www.walshcollege.edu","classification":"Schools of business and management","location":{"latitude":42.573888,"longitude":-83.147197}},
{"id":172644,"name":"Wayne State University","address":"656 West Kirby Street","city":"Detroit","state":"Michigan","zip":48202,"website":"www.wayne.edu","classification":"Research Universities (very high research activity)","location":{"latitude":42.35861,"longitude":-83.072864}},
{"id":172699,"name":"Western Michigan University","address":"1903 West Michigan Avenue","city":"Kalamazoo","state":"Michigan","zip":"49008-5200","website":"www.wmich.edu","classification":"Research Universities (high research activity)","location":{"latitude":42.282589,"longitude":-85.61512}},
{"id":173160,"name":"Bethel University","address":"3900 Bethel Dr","city":"Saint Paul","state":"Minnesota","zip":55112,"website":"www.bethel.edu","classification":"Master's Colleges and Universities (larger programs)","location":{"latitude":45.057091,"longitude":-93.159295}},
{"id":173665,"name":"Hamline University","address":"1536 Hewitt Avenue","city":"Saint Paul","state":"Minnesota","zip":"55104-1284","website":"www.hamline.edu","classification":"Master's Colleges and Universities (larger programs)","location":{"latitude":44.965696,"longitude":-93.163983}},
{"id":174020,"name":"Metropolitan State University","address":"700 East Seventh Street","city":"Saint Paul","state":"Minnesota","zip":"55106-5000","website":"www.metrostate.edu","classification":"Master's Colleges and Universities (medium programs)","location":{"latitude":44.957017,"longitude":-93.074153}},
{"id":174066,"name":"University of Minnesota-Twin Cities","address":"100 Church Street SE","city":"Minneapolis","state":"Minnesota","zip":"55455-0213","website":"www1.umn.edu/twincities/index.php","classification":"Research Universities (very high research activity)","location":{"latitude":44.977886,"longitude":-93.235352}},
{"id":174233,"name":"University of Minnesota-Duluth","address":"515 Darland Administration Bldg","city":"Duluth","state":"Minnesota","zip":55812,"website":"www.d.umn.edu/","classification":"Master's Colleges and Universities (medium programs)","location":{"latitude":46.818896,"longitude":-92.085177}},
{"id":174358,"name":"Minnesota State University Moorhead","address":"1104 Seventh Avenue South","city":"Moorhead","state":"Minnesota","zip":56563,"website":"www.mnstate.edu","classification":"Master's Colleges and Universities (medium programs)","location":{"latitude":46.866482,"longitude":-96.763376}},
{"id":174783,"name":"Saint Cloud State University","address":"720 Fourth Ave. South","city":"Saint Cloud","state":"Minnesota","zip":"56301-4498","website":"www.stcloudstate.edu","classification":"Master's Colleges and Universities (larger programs)","location":{"latitude":45.552418,"longitude":-94.153}},
{"id":174817,"name":"Saint Mary's University of Minnesota","address":"700 Terrace Heights","city":"Winona","state":"Minnesota","zip":"55987-1399","website":"www.smumn.edu","classification":"Doctoral/Research Universities","location":{"latitude":44.045322,"longitude":-91.696652}},
{"id":174914,"name":"University of St Thomas","address":"2115 Summit Ave","city":"Saint Paul","state":"Minnesota","zip":"55105-1078","website":"www.stthomas.edu","classification":"Doctoral/Research Universities","location":{"latitude":44.941662,"longitude":-93.189422}},
{"id":175272,"name":"Winona State University","address":"175 West Mark Street","city":"Winona","state":"Minnesota","zip":"55987-5838","website":"www.winona.edu","classification":"Master's Colleges and Universities (medium programs)","location":{"latitude":44.045586,"longitude":-91.644007}},
{"id":175616,"name":"Delta State University","address":"Hwy 8 West","city":"Cleveland","state":"Mississippi","zip":38733,"website":"www.deltastate.edu","classification":"Master's Colleges and Universities (larger programs)","location":{"latitude":33.743896,"longitude":-90.734378}},
{"id":175856,"name":"Jackson State University","address":"1440 J R Lynch Street","city":"Jackson","state":"Mississippi","zip":39217,"website":"www.jsums.edu","classification":"Research Universities (high research activity)","location":{"latitude":32.296781,"longitude":-90.20663}},
{"id":176017,"name":"University of Mississippi","address":"Oxford, Mississippi","city":"University","state":"Mississippi","zip":"38677-1848","website":"www.olemiss.edu","classification":"Research Universities (high research activity)","location":{"latitude":34.362144,"longitude":-89.539377}},
{"id":176053,"name":"Mississippi College","address":"200 South Capitol Street","city":"Clinton","state":"Mississippi","zip":39058,"website":"www.mc.edu","classification":"Master's Colleges and Universities (larger programs)","location":{"latitude":32.334565,"longitude":-90.330452}},
{"id":176080,"name":"Mississippi State University","address":"Lee Boulevard","city":"Mississippi State","state":"Mississippi","zip":39762,"website":"www.msstate.edu","classification":"Research Universities (very high research activity)","location":{"latitude":33.455241,"longitude":-88.78834}},
{"id":176372,"name":"University of Southern Mississippi","address":"118 College Drive # 0001","city":"Hattiesburg","state":"Mississippi","zip":"39406-0001","website":"www.usm.edu","classification":"Research Universities (high research activity)","location":{"latitude":31.327499,"longitude":-89.33791}},
{"id":176479,"name":"William Carey University","address":"498 Tuscan Ave","city":"Hattiesburg","state":"Mississippi","zip":"39401-5499","website":"www.wmcarey.edu","classification":"Master's Colleges and Universities (larger programs)","location":{"latitude":31.305264,"longitude":-89.291815}},
{"id":177339,"name":"Evangel University","address":"1111 N Glenstone","city":"Springfield","state":"Missouri","zip":"65802-2125","website":"www.evangel.edu","classification":"Baccalaureate Colleges--Diverse Fields","location":{"latitude":37.220956,"longitude":-93.262614}},
{"id":177968,"name":"Lindenwood University","address":"209 S Kingshighway","city":"Saint Charles","state":"Missouri","zip":"63301-1695","website":"www.lindenwood.edu","classification":"Master's Colleges and Universities (larger programs)","location":{"latitude":38.788203,"longitude":-90.502825}},
{"id":178059,"name":"Maryville University of Saint Louis","address":"650 Maryville University Drive","city":"Saint Louis","state":"Missouri","zip":"63141-7299","website":"www.maryville.edu","classification":"Doctoral/Research Universities","location":{"latitude":38.645474,"longitude":-90.505096}},
{"id":178208,"name":"Midwestern Baptist Theological Seminary","address":"5001 N. Oak Trafficway","city":"Kansas City","state":"Missouri","zip":"64118-4697","website":"https://www.mbts.edu","classification":"Theological seminaries, Bible colleges, and other faith-related institutions","location":{"latitude":39.185691,"longitude":-94.573185}},
{"id":178244,"name":"Missouri Baptist University","address":"One College Park Dr","city":"Saint Louis","state":"Missouri","zip":"63141-8698","website":"www.mobap.edu","classification":"Master's Colleges and Universities (larger programs)","location":{"latitude":38.642017,"longitude":-90.462606}},
{"id":178396,"name":"University of Missouri-Columbia","address":"105 Jesse Hall","city":"Columbia","state":"Missouri","zip":65211,"website":"missouri.edu/","classification":"Research Universities (very high research activity)","location":{"latitude":38.941015,"longitude":-92.326429}},
{"id":178402,"name":"University of Missouri-Kansas City","address":"5100 Rockhill Rd","city":"Kansas City","state":"Missouri","zip":64110,"website":"www.umkc.edu/","classification":"Research Universities (high research activity)","location":{"latitude":39.035366,"longitude":-94.578039}},
{"id":178411,"name":"Missouri University of Science and Technology","address":"1870 Miner Circle","city":"Rolla","state":"Missouri","zip":65409,"website":"www.mst.edu/","classification":"Research Universities (high research activity)","location":{"latitude":37.955853,"longitude":-91.7759}},
{"id":178420,"name":"University of Missouri-St Louis","address":"One University Boulevard","city":"Saint Louis","state":"Missouri","zip":"63121-4400","website":"www.umsl.edu/","classification":"Research Universities (high research activity)","location":{"latitude":38.711297,"longitude":-90.308886}},
{"id":179159,"name":"Saint Louis University","address":"One North Grand Blvd","city":"Saint Louis","state":"Missouri","zip":"63103-2097","website":"www.slu.edu","classification":"Research Universities (high research activity)","location":{"latitude":38.634548,"longitude":-90.23381}},
{"id":179326,"name":"Southwest Baptist University","address":"1600 University Ave","city":"Bolivar","state":"Missouri","zip":"65613-2596","website":"www.sbuniv.edu","classification":"Master's Colleges and Universities (larger programs)","location":{"latitude":37.601603,"longitude":-93.410451}},
{"id":179867,"name":"Washington University in St Louis","address":"One Brookings Drive","city":"Saint Louis","state":"Missouri","zip":"63130-4899","website":"www.wustl.edu","classification":"Research Universities (very high research activity)","location":{"latitude":38.648125,"longitude":-90.311639}},
{"id":179964,"name":"William Woods University","address":"One University Avenue","city":"Fulton","state":"Missouri","zip":"65251-1098","website":"www.williamwoods.edu","classification":"Master's Colleges and Universities (larger programs)","location":{"latitude":38.857864,"longitude":-91.949273}},
{"id":180416,"name":"Montana Tech of the University of Montana","address":"1300 W Park St","city":"Butte","state":"Montana","zip":"59701-8997","website":"www.mtech.edu","classification":"Baccalaureate Colleges--Diverse Fields","location":{"latitude":46.012164,"longitude":-112.557}},
{"id":180461,"name":"Montana State University","address":"Montana State University","city":"Bozeman","state":"Montana","zip":59717,"website":"www.montana.edu/","classification":"Research Universities (very high research activity)","location":{"latitude":45.666829,"longitude":-111.049918}},
{"id":180489,"name":"The University of Montana","address":"Missoula, Montana","city":"Missoula","state":"Montana","zip":59812,"website":"www.umt.edu","classification":"Research Universities (high research activity)","location":{"latitude":46.861074,"longitude":-113.98294}},
{"id":180814,"name":"Bellevue University","address":"1000 Galvin Rd S","city":"Bellevue","state":"Nebraska","zip":"68005-3098","website":"www.bellevue.edu","classification":"Master's Colleges and Universities (larger programs)","location":{"latitude":41.150225,"longitude":-95.91764}},
{"id":181002,"name":"Creighton University","address":"2500 California Plaza","city":"Omaha","state":"Nebraska","zip":68178,"website":"www.creighton.edu","classification":"Master's Colleges and Universities (larger programs)","location":{"latitude":41.265325,"longitude":-95.947029}},
{"id":181394,"name":"University of Nebraska at Omaha","address":"6001 Dodge St","city":"Omaha","state":"Nebraska","zip":"68182-0225","website":"www.unomaha.edu","classification":"Doctoral/Research Universities","location":{"latitude":41.257746,"longitude":-96.010797}},
{"id":181428,"name":"University of Nebraska Medical Center","address":"42nd \u0026 Dewey Ave","city":"Omaha","state":"Nebraska","zip":"68198-7815","website":"www.unmc.edu","classification":"Medical schools and medical centers","location":{"latitude":41.249121,"longitude":-95.930822}},
{"id":181464,"name":"University of Nebraska-Lincoln","address":"14th and R St","city":"Lincoln","state":"Nebraska","zip":68588,"website":"www.unl.edu/","classification":"Research Universities (very high research activity)","location":{"latitude":40.822272,"longitude":-96.702177}},
{"id":181604,"name":"College of Saint Mary","address":"7000 Mercy Rd.","city":"Omaha","state":"Nebraska","zip":68106,"website":"WWW.CSM.EDU","classification":"Master's Colleges and Universities (smaller programs)","location":{"latitude":41.240879,"longitude":-96.020209}},
{"id":182281,"name":"University of Nevada-Las Vegas","address":"4505 S Maryland Pky","city":"Las Vegas","state":"Nevada","zip":89154,"website":"www.unlv.edu/","classification":"Research Universities (high research activity)","location":{"latitude":36.106994,"longitude":-115.141153}},
{"id":182290,"name":"University of Nevada-Reno","address":"North Virginia Street","city":"Reno","state":"Nevada","zip":89557,"website":"www.unr.edu/","classification":"Research Universities (high research activity)","location":{"latitude":39.549352,"longitude":-119.821651}},
{"id":182670,"name":"Dartmouth College","address":"207 Parkhurst Hall","city":"Hanover","state":"New Hampshire","zip":"03755-3529","website":"www.dartmouth.edu","classification":"Research Universities (very high research activity)","location":{"latitude":43.70408,"longitude":-72.289951}},
{"id":183026,"name":"Southern New Hampshire University","address":"2500 North River Road","city":"Manchester","state":"New Hampshire","zip":"03106-1045","website":"www.snhu.edu","classification":"Master's Colleges and Universities (larger programs)","location":{"latitude":43.039892,"longitude":-71.453938}},
{"id":183044,"name":"University of New Hampshire-Main Campus","address":"105 Main St., Thompson Hall","city":"Durham","state":"New Hampshire","zip":"03824-3547","website":"www.unh.edu","classification":"Research Universities (high research activity)","location":{"latitude":43.134235,"longitude":-70.934512}},
{"id":183080,"name":"Plymouth State University","address":"17 High Street","city":"Plymouth","state":"New Hampshire","zip":"03264-1595","website":"www.plymouth.edu","classification":"Master's Colleges and Universities (larger programs)","location":{"latitude":43.757386,"longitude":-71.691164}},
{"id":183211,"name":"Rivier University","address":"420 South Main St","city":"Nashua","state":"New Hampshire","zip":3060,"website":"www.rivier.edu","classification":"Master's Colleges and Universities (larger programs)","location":{"latitude":42.738343,"longitude":-71.455466}},
{"id":183910,"name":"Caldwell University","address":"120 Bloomfield Avenue","city":"Caldwell","state":"New Jersey","zip":"07006-6195","website":"www.caldwell.edu","classification":"Master's Colleges and Universities (medium programs)","location":{"latitude":40.834285,"longitude":-74.273697}},
{"id":184348,"name":"Drew University","address":"36 Madison Ave","city":"Madison","state":"New Jersey","zip":7940,"website":"www.drew.edu","classification":"Baccalaureate Colleges--Arts \u0026 Sciences","location":{"latitude":40.757026,"longitude":-74.425825}},
{"id":184603,"name":"Fairleigh Dickinson University-Metropolitan Campus","address":"1000 River Rd","city":"Teaneck","state":"New Jersey","zip":7666,"website":"www.fdu.edu","classification":"Master's Colleges and Universities (larger programs)","location":{"latitude":40.896162,"longitude":-74.030023}},
{"id":184782,"name":"Rowan University","address":"201 Mullica Hill Road","city":"Glassboro","state":"New Jersey","zip":8028,"website":"www.rowan.edu","classification":"Master's Colleges and Universities (larger programs)","location":{"latitude":39.709768,"longitude":-75.117974}},
{"id":185129,"name":"New Jersey City University","address":"2039 Kennedy Blvd","city":"Jersey City","state":"New Jersey","zip":7305,"website":"www.njcu.edu","classification":"Master's Colleges and Universities (larger programs)","location":{"latitude":40.709937,"longitude":-74.08727}},
{"id":185262,"name":"Kean University","address":"1000 Morris Avenue","city":"Union","state":"New Jersey","zip":7083,"website":"www.kean.edu","classification":"Master's Colleges and Universities (larger programs)","location":{"latitude":40.679429,"longitude":-74.234668}},
{"id":185590,"name":"Montclair State University","address":"1 Normal Avenue","city":"Montclair","state":"New Jersey","zip":"07043-1624","website":"www.montclair.edu","classification":"Master's Colleges and Universities (larger programs)","location":{"latitude":40.859233,"longitude":-74.199455}},
{"id":185828,"name":"New Jersey Institute of Technology","address":"University Heights","city":"Newark","state":"New Jersey","zip":7102,"website":"www.njit.edu/","classification":"Research Universities (high research activity)","location":{"latitude":40.741997,"longitude":-74.177113}},
{"id":186131,"name":"Princeton University","address":"1 Nassau Hall","city":"Princeton","state":"New Jersey","zip":"08544-0070","website":"www.princeton.edu","classification":"Research Universities (very high research activity)","location":{"latitude":40.348496,"longitude":-74.663708}},
{"id":186371,"name":"Rutgers University-Camden","address":"406 Penn","city":"Camden","state":"New Jersey","zip":8102,"website":"www.rutgers.edu","classification":"Master's Colleges and Universities (medium programs)","location":{"latitude":39.948628,"longitude":-75.125303}},
{"id":186380,"name":"Rutgers University-New Brunswick","address":"83 Somerset St","city":"New Brunswick","state":"New Jersey","zip":"08901-1281","website":"www.rutgers.edu/","classification":"Research Universities (very high research activity)","location":{"latitude":40.503796,"longitude":-74.45051}},
{"id":186399,"name":"Rutgers University-Newark","address":"249 University Avenue, Blumenthal Hall","city":"Newark","state":"New Jersey","zip":7102,"website":"www.rutgers.edu","classification":"Research Universities (high research activity)","location":{"latitude":40.741303,"longitude":-74.175294}},
{"id":186432,"name":"Saint Peter's University","address":"2641 Kennedy Blvd","city":"Jersey City","state":"New Jersey","zip":"07306-5997","website":"www.saintpeters.edu","classification":"Master's Colleges and Universities (larger programs)","location":{"latitude":40.727105,"longitude":-74.071541}},
{"id":186584,"name":"Seton Hall University","address":"400 S Orange Ave","city":"South Orange","state":"New Jersey","zip":"07079-2697","website":"www.shu.edu","classification":"Doctoral/Research Universities","location":{"latitude":40.742859,"longitude":-74.248753}},
{"id":186618,"name":"College of Saint Elizabeth","address":"2 Convent Rd","city":"Morristown","state":"New Jersey","zip":"07960-6989","website":"www.cse.edu","classification":"Master's Colleges and Universities (larger programs)","location":{"latitude":40.781061,"longitude":-74.436039}},
{"id":186867,"name":"Stevens Institute of Technology","address":"Castle Point On Hudson","city":"Hoboken","state":"New Jersey","zip":"07030-5991","website":"www.stevens.edu","classification":"Research Universities (high research activity)","location":{"latitude":40.744776,"longitude":-74.025334}},
{"id":187967,"name":"New Mexico Institute of Mining and Technology","address":"801 Leroy Place","city":"Socorro","state":"New Mexico","zip":87801,"website":"www.nmt.edu","classification":"Master's Colleges and Universities (medium programs)","location":{"latitude":34.066035,"longitude":-106.907491}},
{"id":187985,"name":"University of New Mexico-Main Campus","address":"1700 Lomas Blvd NE","city":"Albuquerque","state":"New Mexico","zip":87106,"website":"www.unm.edu","classification":"Research Universities (very high research activity)","location":{"latitude":35.083868,"longitude":-106.620155}},
{"id":188030,"name":"New Mexico State University-Main Campus","address":"2850 Weddell Street","city":"Las Cruces","state":"New Mexico","zip":"88003-8001","website":"www.nmsu.edu/","classification":"Research Universities (high research activity)","location":{"latitude":32.282875,"longitude":-106.747841}},
{"id":188429,"name":"Adelphi University","address":"South Ave","city":"Garden City","state":"New York","zip":"11530-0701","website":"www.adelphi.edu/","classification":"Doctoral/Research Universities","location":{"latitude":40.721439,"longitude":-73.653321}},
{"id":188641,"name":"Alfred University","address":"One Saxon Drive","city":"Alfred","state":"New York","zip":"14802-1205","website":"www.alfred.edu","classification":"Master's Colleges and Universities (larger programs)","location":{"latitude":42.255866,"longitude":-77.788625}},
{"id":189088,"name":"Bard College","address":"Annandale Road","city":"Annandale-On-Hudson","state":"New York","zip":"12504-5000","website":"www.bard.edu","classification":"Baccalaureate Colleges--Arts \u0026 Sciences","location":{"latitude":42.021803,"longitude":-73.906243}},
{"id":189273,"name":"Beth Hamedrash Shaarei Yosher Institute","address":"4102 16th Ave","city":"Brooklyn","state":"New York","zip":11204,"classification":"Theological seminaries, Bible colleges, and other faith-related institutions","location":{"latitude":40.635503,"longitude":-73.981088}},
{"id":190044,"name":"Clarkson University","address":"8 Clarkson Ave","city":"Potsdam","state":"New York","zip":13699,"website":"www.clarkson.edu","classification":"Research Universities (high research activity)","location":{"latitude":44.663761,"longitude":-74.999947}},
{"id":190150,"name":"Columbia University in the City of New York","address":"West 116 St and Broadway","city":"New York","state":"New York","zip":10027,"website":"www.columbia.edu","classification":"Research Universities (very high research activity)","location":{"latitude":40.808286,"longitude":-73.961885}},
{"id":190415,"name":"Cornell University","address":"300 Day Hall","city":"Ithaca","state":"New York","zip":14853,"website":"www.cornell.edu","classification":"Research Universities (very high research activity)","location":{"latitude":42.445291,"longitude":-76.48269}},
{"id":190567,"name":"CUNY City College","address":"160 Convent Ave","city":"New York","state":"New York","zip":10031,"website":"www.ccny.cuny.edu","classification":"Master's Colleges and Universities (larger programs)","location":{"latitude":40.819794,"longitude":-73.95055}},
{"id":190576,"name":"CUNY Graduate School and University Center","address":"365 Fifth Ave","city":"New York","state":"New York","zip":10016,"website":"www.gc.cuny.edu","classification":"Research Universities (very high research activity)","location":{"latitude":40.748503,"longitude":-73.983575}},
{"id":190594,"name":"CUNY Hunter College","address":"695 Park Ave","city":"New York","state":"New York","zip":10065,"website":"www.hunter.cuny.edu","classification":"Master's Colleges and Universities (larger programs)","location":{"latitude":40.768669,"longitude":-73.964795}},
{"id":190716,"name":"D'Youville College","address":"320 Porter Ave","city":"Buffalo","state":"New York","zip":"14201-1084","website":"www.dyc.edu","classification":"Master's Colleges and Universities (larger programs)","location":{"latitude":42.902263,"longitude":-78.890369}},
{"id":191205,"name":"Five Towns College","address":"305 North Service Road","city":"Dix Hills","state":"New York","zip":"11746-5871","website":"www.ftc.edu","classification":"Baccalaureate Colleges--Diverse Fields","location":{"latitude":40.793327,"longitude":-73.369968}},
{"id":191241,"name":"Fordham University","address":"441 E Fordham Rd","city":"Bronx","state":"New York","zip":10458,"website":"www.fordham.edu","classification":"Research Universities (high research activity)","location":{"latitude":40.861183,"longitude":-73.889578}},
{"id":191649,"name":"Hofstra University","address":"100 Hofstra University","city":"Hempstead","state":"New York","zip":11549,"website":"www.hofstra.edu","classification":"Doctoral/Research Universities","location":{"latitude":40.715959,"longitude":-73.60078}},